[{"store_id":"1","store_name":"Lidl","longitude":"21.71265400","latitude":"38.20803190","map_id":"node\/354449389","address":"Unknown"},{"store_id":"2","store_name":"The Mart","longitude":"21.78065670","latitude":"38.28931000","map_id":"node\/360217468","address":"Unknown"},{"store_id":"3","store_name":"Lidl","longitude":"21.74342650","latitude":"38.26335110","map_id":"node\/360226900","address":"Νοταρά"},{"store_id":"4","store_name":"Σουπερμάρκετ Ανδρικόπουλος","longitude":"21.79080280","latitude":"38.29520860","map_id":"node\/364381224","address":"Αθηνών"},{"store_id":"5","store_name":"Σκλαβενίτης","longitude":"21.76420750","latitude":"38.21043650","map_id":"node\/364463568","address":"Unknown"},{"store_id":"6","store_name":"Papakos","longitude":"21.76227780","latitude":"38.23553000","map_id":"node\/598279836","address":"Unknown"},{"store_id":"7","store_name":"Unknown","longitude":"21.75402360","latitude":"38.26129080","map_id":"node\/633369803","address":"Unknown"},{"store_id":"8","store_name":"Lidl","longitude":"21.74008200","latitude":"38.23129260","map_id":"node\/980515550","address":"Unknown"},{"store_id":"9","store_name":"Κρόνος","longitude":"21.78149570","latitude":"38.30130870","map_id":"node\/1643373636","address":"Unknown"},{"store_id":"10","store_name":"Unknown","longitude":"21.79038300","latitude":"38.29493720","map_id":"node\/1643373639","address":"Unknown"},{"store_id":"11","store_name":"Unknown","longitude":"21.76667230","latitude":"38.28523640","map_id":"node\/1643713403","address":"Unknown"},{"store_id":"12","store_name":"Unknown","longitude":"21.77145460","latitude":"38.29111210","map_id":"node\/1643713405","address":"Unknown"},{"store_id":"13","store_name":"Unknown","longitude":"21.76660790","latitude":"38.29133320","map_id":"node\/1643713406","address":"Unknown"},{"store_id":"14","store_name":"Unknown","longitude":"21.76254720","latitude":"38.27791260","map_id":"node\/1643818244","address":"Unknown"},{"store_id":"15","store_name":"Unknown","longitude":"21.75740310","latitude":"38.27516360","map_id":"node\/1643818267","address":"Unknown"},{"store_id":"16","store_name":"Unknown","longitude":"21.76291720","latitude":"38.27569420","map_id":"node\/1643818277","address":"Unknown"},{"store_id":"17","store_name":"Σκλαβενίτης","longitude":"21.74896620","latitude":"38.25964760","map_id":"node\/1643818281","address":"Unknown"},{"store_id":"18","store_name":"Unknown","longitude":"21.78831230","latitude":"38.29450360","map_id":"node\/1643825320","address":"Unknown"},{"store_id":"19","store_name":"Unknown","longitude":"21.75687380","latitude":"38.21264770","map_id":"node\/1643889596","address":"Unknown"},{"store_id":"20","store_name":"Ρουμελιώτης SUPER Market","longitude":"21.74361270","latitude":"38.26138060","map_id":"node\/1657132006","address":"Unknown"},{"store_id":"21","store_name":"Σκλαβενίτης","longitude":"21.74158200","latitude":"38.25852360","map_id":"node\/1657132008","address":"Unknown"},{"store_id":"22","store_name":"Unknown","longitude":"21.78549890","latitude":"38.29913820","map_id":"node\/1657962066","address":"Unknown"},{"store_id":"23","store_name":"Unknown","longitude":"21.77128030","latitude":"38.29154090","map_id":"node\/1695934267","address":"Unknown"},{"store_id":"24","store_name":"My market","longitude":"21.74732650","latitude":"38.23238920","map_id":"node\/1763830009","address":"Καλαβρύτων"},{"store_id":"25","store_name":"ΑΒ Βασιλόπουλος","longitude":"21.72572940","latitude":"38.23223760","map_id":"node\/1763830474","address":"Unknown"},{"store_id":"26","store_name":"Markoulas","longitude":"21.76036290","latitude":"38.26449730","map_id":"node\/1770994538","address":"Unknown"},{"store_id":"27","store_name":"Unknown","longitude":"21.75932520","latitude":"38.26578650","map_id":"node\/1771512424","address":"Unknown"},{"store_id":"28","store_name":"Lidl","longitude":"21.80513320","latitude":"38.30675630","map_id":"node\/1815896581","address":"Unknown"},{"store_id":"29","store_name":"Ανδρικόπουλος","longitude":"21.73637100","latitude":"38.23998630","map_id":"node\/1971240515","address":"Unknown"},{"store_id":"30","store_name":"Unknown","longitude":"21.73990010","latitude":"38.23771440","map_id":"node\/1971240518","address":"Unknown"},{"store_id":"31","store_name":"Σκλαβενίτης","longitude":"21.73734090","latitude":"38.23649450","map_id":"node\/1971247760","address":"Unknown"},{"store_id":"32","store_name":"My Market","longitude":"21.73423620","latitude":"38.24270520","map_id":"node\/1971249846","address":"Unknown"},{"store_id":"33","store_name":"Unknown","longitude":"21.76893920","latitude":"38.28038110","map_id":"node\/1997401665","address":"Unknown"},{"store_id":"34","store_name":"Unknown","longitude":"21.76463160","latitude":"38.27673890","map_id":"node\/1997401682","address":"Unknown"},{"store_id":"35","store_name":"My market","longitude":"21.73967080","latitude":"38.25686180","map_id":"node\/3144355008","address":"Αγίας Σοφίας & Αθηνών"},{"store_id":"36","store_name":"Ανδρικόπουλος","longitude":"21.73232930","latitude":"38.19519680","map_id":"node\/3354481184","address":"Unknown"},{"store_id":"37","store_name":"ΑΒ ΒΑΣΙΛΟΠΟΥΛΟΣ","longitude":"21.74185060","latitude":"38.25655890","map_id":"node\/4101518891","address":"Εγνατίας"},{"store_id":"38","store_name":"Unknown","longitude":"21.73652860","latitude":"38.24500950","map_id":"node\/4356067891","address":"Unknown"},{"store_id":"39","store_name":"Σκλαβενίτης","longitude":"21.73328500","latitude":"38.24348590","map_id":"node\/4356183595","address":"Unknown"},{"store_id":"40","store_name":"Unknown","longitude":"21.73395490","latitude":"38.24382420","map_id":"node\/4357098895","address":"Unknown"},{"store_id":"41","store_name":"Unknown","longitude":"21.74142190","latitude":"38.25242870","map_id":"node\/4357217589","address":"Unknown"},{"store_id":"42","store_name":"Unknown","longitude":"21.74239250","latitude":"38.25127320","map_id":"node\/4357425491","address":"Unknown"},{"store_id":"43","store_name":"Ανδρικόπουλος","longitude":"21.73025590","latitude":"38.24279630","map_id":"node\/4357589496","address":"Unknown"},{"store_id":"44","store_name":"Unknown","longitude":"21.73371910","latitude":"38.24541210","map_id":"node\/4358244594","address":"Unknown"},{"store_id":"45","store_name":"Mini Market","longitude":"21.83649930","latitude":"38.27258040","map_id":"node\/4372108797","address":"Unknown"},{"store_id":"46","store_name":"Carna","longitude":"21.76671360","latitude":"38.27953770","map_id":"node\/4484528391","address":"Εθνική Οδός 8α"},{"store_id":"47","store_name":"Mini Market","longitude":"21.77700110","latitude":"38.30524090","map_id":"node\/4752810729","address":"Unknown"},{"store_id":"48","store_name":"Kronos","longitude":"21.72964350","latitude":"38.24257940","map_id":"node\/4931300543","address":"Unknown"},{"store_id":"49","store_name":"Φίλιππας","longitude":"21.75046810","latitude":"38.25856390","map_id":"node\/4953268497","address":"Unknown"},{"store_id":"50","store_name":"Unknown","longitude":"21.79409890","latitude":"38.30150180","map_id":"node\/4969309651","address":"Unknown"},{"store_id":"51","store_name":"No supermarket","longitude":"21.73633490","latitude":"38.24980650","map_id":"node\/5005384516","address":"Unknown"},{"store_id":"52","store_name":"Kiosk","longitude":"21.73512800","latitude":"38.24908520","map_id":"node\/5005409493","address":"Unknown"},{"store_id":"53","store_name":"Kiosk","longitude":"21.73491150","latitude":"38.24931690","map_id":"node\/5005409494","address":"Unknown"},{"store_id":"54","store_name":"Kiosk","longitude":"21.73444270","latitude":"38.24895630","map_id":"node\/5005409495","address":"Unknown"},{"store_id":"55","store_name":"Kiosk","longitude":"21.74130660","latitude":"38.25698750","map_id":"node\/5005476710","address":"Unknown"},{"store_id":"56","store_name":"Kiosk","longitude":"21.74095310","latitude":"38.25614340","map_id":"node\/5005476711","address":"Unknown"},{"store_id":"57","store_name":"Unknown","longitude":"21.74007040","latitude":"38.25236780","map_id":"node\/5132918123","address":"Unknown"},{"store_id":"58","store_name":"Ανδρικόπουλος - Supermarket","longitude":"21.74815010","latitude":"38.26919370","map_id":"node\/5164678230","address":"Αξιού"},{"store_id":"59","store_name":"Σκλαβενίτης","longitude":"21.74970140","latitude":"38.26909630","map_id":"node\/5164741179","address":"Νοταρά"},{"store_id":"60","store_name":"Unknown","longitude":"21.72516550","latitude":"38.23382700","map_id":"node\/5350727524","address":"Unknown"},{"store_id":"61","store_name":"Mini Market","longitude":"21.87642220","latitude":"38.32773880","map_id":"node\/5396345464","address":"Unknown"},{"store_id":"62","store_name":"ΑΒ Βασιλόπουλος","longitude":"21.73577830","latitude":"38.21709350","map_id":"node\/5620198221","address":"Unknown"},{"store_id":"63","store_name":"Mini Market","longitude":"21.73212040","latitude":"38.21602590","map_id":"node\/5620208927","address":"Unknown"},{"store_id":"64","store_name":"Unknown","longitude":"21.82034510","latitude":"38.31274100","map_id":"node\/5783486253","address":"Unknown"},{"store_id":"65","store_name":"Unknown","longitude":"21.73124160","latitude":"38.24518670","map_id":"node\/5909978406","address":"Unknown"},{"store_id":"66","store_name":"3A","longitude":"21.73966870","latitude":"38.25045140","map_id":"node\/7673935764","address":"Unknown"},{"store_id":"67","store_name":"Spar","longitude":"21.73897710","latitude":"38.24863160","map_id":"node\/7673976786","address":"Unknown"},{"store_id":"68","store_name":"ΑΝΔΡΙΚΟΠΟΥΛΟΣ","longitude":"21.73832240","latitude":"38.24815450","map_id":"node\/7673986831","address":"Unknown"},{"store_id":"69","store_name":"ΑΝΔΡΙΚΟΠΟΥΛΟΣ","longitude":"21.73080440","latitude":"38.24294660","map_id":"node\/7674120315","address":"Unknown"},{"store_id":"70","store_name":"MyMarket","longitude":"21.72652830","latitude":"38.23928360","map_id":"node\/7677225097","address":"Unknown"},{"store_id":"71","store_name":"Unknown","longitude":"21.75753490","latitude":"38.26533680","map_id":"node\/7914886761","address":"Unknown"},{"store_id":"72","store_name":"Ena Cash And Carry","longitude":"21.72534720","latitude":"38.23466220","map_id":"node\/8214753473","address":"Unknown"},{"store_id":"73","store_name":"ΚΡΟΝΟΣ - (Σκαγιοπουλείου)","longitude":"21.72949150","latitude":"38.23580020","map_id":"node\/8214854586","address":"Unknown"},{"store_id":"74","store_name":"Ανδρικόπουλος Super Market","longitude":"21.73064060","latitude":"38.23791760","map_id":"node\/8214887295","address":"Unknown"},{"store_id":"75","store_name":"3Α Αράπης","longitude":"21.73289840","latitude":"38.23750680","map_id":"node\/8214887306","address":"Unknown"},{"store_id":"76","store_name":"Γαλαξίας","longitude":"21.73378700","latitude":"38.23611270","map_id":"node\/8214910532","address":"Unknown"},{"store_id":"77","store_name":"Super Market Θεοδωρόπουλος","longitude":"21.72831230","latitude":"38.23601290","map_id":"node\/8215010716","address":"Unknown"},{"store_id":"78","store_name":"Super Market ΚΡΟΝΟΣ","longitude":"21.73407230","latitude":"38.23904420","map_id":"node\/8215157448","address":"Unknown"},{"store_id":"79","store_name":"Unknown","longitude":"21.73968550","latitude":"38.26422740","map_id":"node\/8753329904","address":"Unknown"},{"store_id":"80","store_name":"Unknown","longitude":"21.73988130","latitude":"38.26582370","map_id":"node\/8753329905","address":"Unknown"},{"store_id":"81","store_name":"Σκλαβενίτης","longitude":"21.74287030","latitude":"38.26018010","map_id":"node\/8777081651","address":"Unknown"},{"store_id":"82","store_name":"3A ARAPIS","longitude":"21.74600780","latitude":"38.25864240","map_id":"node\/8777171555","address":"Unknown"},{"store_id":"83","store_name":"Μασούτης","longitude":"21.73550580","latitude":"38.24546690","map_id":"node\/8805335004","address":"Unknown"},{"store_id":"84","store_name":"ΑΒ Shop & Go","longitude":"21.73802880","latitude":"38.24957000","map_id":"node\/8805467220","address":"Unknown"},{"store_id":"85","store_name":"3Α ΑΡΑΠΗΣ","longitude":"21.74555580","latitude":"38.23987890","map_id":"node\/8806495733","address":"Unknown"},{"store_id":"86","store_name":"Περίπτερο","longitude":"21.74087450","latitude":"38.25544430","map_id":"node\/9651304117","address":"Unknown"},{"store_id":"87","store_name":"Unknown","longitude":"21.62322070","latitude":"38.14942230","map_id":"node\/9785182275","address":"Unknown"},{"store_id":"88","store_name":"Unknown","longitude":"21.62062840","latitude":"38.14774120","map_id":"node\/9785182280","address":"Unknown"},{"store_id":"89","store_name":"Unknown","longitude":"21.64547910","latitude":"38.15630670","map_id":"node\/9785335420","address":"Unknown"}]